stop_id,stop_code,stop_name,stop_lat,stop_lon,stop_url
1,1,Serra Mall @ the Oval,37.428881,-122.169137,http://fops-cf.stanford.edu/stanford_ivl/stopDepartures.cfm?stopid=1
2,2,Serra Mall @ Main Quad,37.429012,-122.170065,http://fops-cf.stanford.edu/stanford_ivl/stopDepartures.cfm?stopid=2
3,3,Serra Mall @ Memorial Auditorium,37.428438,-122.167105,http://fops-cf.stanford.edu/stanford_ivl/stopDepartures.cfm?stopid=3
4,4,Serra Mall @ Hoover Tower,37.428234,-122.166383,http://fops-cf.stanford.edu/stanford_ivl/stopDepartures.cfm?stopid=4
5,5,Galvez St. @ Memorial Way,37.429284,-122.164968,http://fops-cf.stanford.edu/stanford_ivl/stopDepartures.cfm?stopid=5
6,6,Galvez St. @ Montag Hall,37.429524,-122.164779,http://fops-cf.stanford.edu/stanford_ivl/stopDepartures.cfm?stopid=6
7,7,Galvez St. @ The Alumni Center,37.430592,-122.164523,http://fops-cf.stanford.edu/stanford_ivl/stopDepartures.cfm?stopid=7
8,8,Galvez St.@ The Track House,37.431728,-122.164008,http://fops-cf.stanford.edu/stanford_ivl/stopDepartures.cfm?stopid=8
10,10,Serra St @ Burnham Pavilion,37.427916,-122.164605,http://fops-cf.stanford.edu/stanford_ivl/stopDepartures.cfm?stopid=10
11,11,Serra St. @ Encina Hall,37.42773,-122.164061,http://fops-cf.stanford.edu/stanford_ivl/stopDepartures.cfm?stopid=11
12,12,"Serra St.@ Campus Dr.,",37.42711,-122.160785,http://fops-cf.stanford.edu/stanford_ivl/stopDepartures.cfm?stopid=12
13,13,Serra St. @ Manzanita Field,37.427013,-122.160691,http://fops-cf.stanford.edu/stanford_ivl/stopDepartures.cfm?stopid=13
14,14,Campus Dr. @ Serra St,37.426142,-122.159459,http://fops-cf.stanford.edu/stanford_ivl/stopDepartures.cfm?stopid=14
17,17,Campus Dr.@ Escondido Rd.,37.424045,-122.160693,http://fops-cf.stanford.edu/stanford_ivl/stopDepartures.cfm?stopid=17
18,18,Campus Drive @ Mirrelees Apartments,37.424458,-122.160321,http://fops-cf.stanford.edu/stanford_ivl/stopDepartures.cfm?stopid=18
19,19,"Campus Dr, @  Bowdoin St.",37.422793,-122.161118,http://fops-cf.stanford.edu/stanford_ivl/stopDepartures.cfm?stopid=19
20,20,Campus Drive @ Wilbur Parking Lot,37.422633,-122.161728,http://fops-cf.stanford.edu/stanford_ivl/stopDepartures.cfm?stopid=20
21,21,Campus Dr. @  Vaden Health Center,37.422369,-122.163736,http://fops-cf.stanford.edu/stanford_ivl/stopDepartures.cfm?stopid=21
22,22,Campus Drive at Wilbur Field,37.422605,-122.163814,http://fops-cf.stanford.edu/stanford_ivl/stopDepartures.cfm?stopid=22
23,23,Campus Dr. @ Munger Residence,37.422964,-122.165403,http://fops-cf.stanford.edu/stanford_ivl/stopDepartures.cfm?stopid=23
24,24,Campus Dr. @ Alvarado Row,37.422661,-122.165921,http://fops-cf.stanford.edu/stanford_ivl/stopDepartures.cfm?stopid=24
25,25,Campus Drive @ Mayfield North,37.421532,-122.168274,http://fops-cf.stanford.edu/stanford_ivl/stopDepartures.cfm?stopid=25
26,26,Campus Drive @ Mayfield South,37.42152,-122.168144,http://fops-cf.stanford.edu/stanford_ivl/stopDepartures.cfm?stopid=26
27,27,Tresidder Student Union,37.42374038,-122.1705856,http://fops-cf.stanford.edu/stanford_ivl/stopDepartures.cfm?stopid=27
28,28,Tresidder Student Union,37.423601,-122.170571,http://fops-cf.stanford.edu/stanford_ivl/stopDepartures.cfm?stopid=28
29,29,Lomita Drive @ Santa Theresa,37.425372,-122.173425,http://fops-cf.stanford.edu/stanford_ivl/stopDepartures.cfm?stopid=29
30,30,Lomita Drive @ The New Guinea Sculptures,37.425259,-122.173494,http://fops-cf.stanford.edu/stanford_ivl/stopDepartures.cfm?stopid=30
31,31,Samuel Morris Way @ Panama Mall,37.426324,-122.174085,http://fops-cf.stanford.edu/stanford_ivl/stopDepartures.cfm?stopid=31
32,32,Panama Mall @ Roble Gym,37.42647,-122.174228,http://fops-cf.stanford.edu/stanford_ivl/stopDepartures.cfm?stopid=32
35,35,Santa Theresa @ Roble Field,37.42609786,-122.176918,http://fops-cf.stanford.edu/stanford_ivl/stopDepartures.cfm?stopid=35
36,36,Santa Theresa @ The West Residences,37.425952,-122.176686,http://fops-cf.stanford.edu/stanford_ivl/stopDepartures.cfm?stopid=36
37,37,Santa Theresa @ Governors Corner,37.426497,-122.180534,http://fops-cf.stanford.edu/stanford_ivl/stopDepartures.cfm?stopid=37
38,38,Santa Theresa @ Los Arboles Ave.,37.426572,-122.180553,http://fops-cf.stanford.edu/stanford_ivl/stopDepartures.cfm?stopid=38
39,39,Olmsted Rd. @ Hoskins Court North,37.427126,-122.157483,http://fops-cf.stanford.edu/stanford_ivl/stopDepartures.cfm?stopid=39
40,40,Olmsted Rd @ Hoskins Ct. South,37.427443,-122.156897,http://fops-cf.stanford.edu/stanford_ivl/stopDepartures.cfm?stopid=40
41,41,82 Olmsted Rd. North,37.429612,-122.153819,http://fops-cf.stanford.edu/stanford_ivl/stopDepartures.cfm?stopid=41
42,42,82 Olmsted Rd. South,37.4295,-122.153442,http://fops-cf.stanford.edu/stanford_ivl/stopDepartures.cfm?stopid=42
43,43,Olmsted Rd. @ Hulme Ct North,37.428629,-122.155575,http://fops-cf.stanford.edu/stanford_ivl/stopDepartures.cfm?stopid=43
44,44,Olmsted Rd. @ Hulme Court South,37.428936,-122.154857,http://fops-cf.stanford.edu/stanford_ivl/stopDepartures.cfm?stopid=44
45,45,Olmsted Rd. @ Barnes Ct. West,37.428876,-122.1519,http://fops-cf.stanford.edu/stanford_ivl/stopDepartures.cfm?stopid=45
46,46,Olmsted Rd. @ Barnes Ct East,37.428751,-122.151584,http://fops-cf.stanford.edu/stanford_ivl/stopDepartures.cfm?stopid=46
47,47,Olmsted Rd. @ Yale St. East,37.426457,-122.150761,http://fops-cf.stanford.edu/stanford_ivl/stopDepartures.cfm?stopid=47
48,48,Olmsted Rd. @ Yale West,37.426409,-122.150873,http://fops-cf.stanford.edu/stanford_ivl/stopDepartures.cfm?stopid=48
49,49,California Ave @ El Camino Real,37.425437,-122.145424,http://fops-cf.stanford.edu/stanford_ivl/stopDepartures.cfm?stopid=49
50,50,California Avenue  Near Ash Avenue,37.426119,-122.144923,http://fops-cf.stanford.edu/stanford_ivl/stopDepartures.cfm?stopid=50
51,51,California Avenue @ Ash,37.426659,-122.144623,http://fops-cf.stanford.edu/stanford_ivl/stopDepartures.cfm?stopid=51
52,52,California Avenue @ Birch St.,37.427307,-122.144142,http://fops-cf.stanford.edu/stanford_ivl/stopDepartures.cfm?stopid=52
53,53,Birch St. @ California Ave.,37.427532,-122.143721,http://fops-cf.stanford.edu/stanford_ivl/stopDepartures.cfm?stopid=53
55,55,California Avenue Caltrain Station,37.428798,-122.14263,http://fops-cf.stanford.edu/stanford_ivl/stopDepartures.cfm?stopid=55
61,62,Galvez St. @ El Camino Real,37.437004,-122.161065,http://fops-cf.stanford.edu/stanford_ivl/stopDepartures.cfm?stopid=62
62,63,El Camino Real @ Town and Country,37.437723,-122.16033,http://fops-cf.stanford.edu/stanford_ivl/stopDepartures.cfm?stopid=63
63,64,El Camino Real @ Homner Ave.,37.439116,-122.162419,http://fops-cf.stanford.edu/stanford_ivl/stopDepartures.cfm?stopid=64
65,66,Palo Alto Transit Center (CalTrain),37.443087,-122.164417,http://fops-cf.stanford.edu/stanford_ivl/stopDepartures.cfm?stopid=66
66,67,Lytton @ Alma St.,37.444391,-122.165114,http://fops-cf.stanford.edu/stanford_ivl/stopDepartures.cfm?stopid=67
67,68,Emerson @ Lytton Plaza,37.444461,-122.162536,http://fops-cf.stanford.edu/stanford_ivl/stopDepartures.cfm?stopid=68
68,69,Quarry Rd. @ Welch Rd.,37.435472,-122.173137,http://fops-cf.stanford.edu/stanford_ivl/stopDepartures.cfm?stopid=69
69,70,Quarry Rd. @ Psychiatry Parking Lot,37.43579,-122.172784,http://fops-cf.stanford.edu/stanford_ivl/stopDepartures.cfm?stopid=70
70,71,Quarry Rd @ Andronicos,37.438749,-122.171541,http://fops-cf.stanford.edu/stanford_ivl/stopDepartures.cfm?stopid=71
71,72,Quarry Rd @ Psychiatry,37.438332,-122.171459,http://fops-cf.stanford.edu/stanford_ivl/stopDepartures.cfm?stopid=72
72,73,Quarry Rd @ Medical Center,37.43358612,-122.1739731,http://fops-cf.stanford.edu/stanford_ivl/stopDepartures.cfm?stopid=73
73,74,Medical Center @ Quarry Rd.,37.433709,-122.17385,http://fops-cf.stanford.edu/stanford_ivl/stopDepartures.cfm?stopid=74
74,75,Quarry Rd. @ Medical School,37.432775,-122.174237,http://fops-cf.stanford.edu/stanford_ivl/stopDepartures.cfm?stopid=75
75,76,Serra St. @ Via Ortega,37.430166,-122.175192,http://fops-cf.stanford.edu/stanford_ivl/stopDepartures.cfm?stopid=76
77,78,Serra Mall @ Allen Bldg,37.430075,-122.175047,http://fops-cf.stanford.edu/stanford_ivl/stopDepartures.cfm?stopid=78
78,79,Serra Mall @ Gates Bldg.,37.429782,-122.173329,http://fops-cf.stanford.edu/stanford_ivl/stopDepartures.cfm?stopid=79
79,80,Serra St. @ Packard Electrical Eng.,37.429587,-122.172769,http://fops-cf.stanford.edu/stanford_ivl/stopDepartures.cfm?stopid=80
80,81,Campus Dr.  @ Panama St.,37.430775,-122.178021,http://fops-cf.stanford.edu/stanford_ivl/stopDepartures.cfm?stopid=81
81,82,Campus Drive @ Medical School Office,37.431113,-122.178451,http://fops-cf.stanford.edu/stanford_ivl/stopDepartures.cfm?stopid=82
82,84,SLAC Hotel (Stanford Guesthouse),37.420039,-122.20254,http://fops-cf.stanford.edu/stanford_ivl/stopDepartures.cfm?stopid=84
83,85,Sand Hill Rd. @ Sharon Park Rd. South,37.423894,-122.194993,http://fops-cf.stanford.edu/stanford_ivl/stopDepartures.cfm?stopid=85
84,86,Sand Hill Rd.@ Sharon Park Rd. North,37.423536,-122.195894,http://fops-cf.stanford.edu/stanford_ivl/stopDepartures.cfm?stopid=86
85,87,Bus Plaza @ Parking Structure 5,37.431425,-122.181404,http://fops-cf.stanford.edu/stanford_ivl/stopDepartures.cfm?stopid=87
86,88,Stock Farm Parking Lot @ Oak Rd.,37.432374,-122.180357,http://fops-cf.stanford.edu/stanford_ivl/stopDepartures.cfm?stopid=88
87,89,Bus Plaza across from Parking Struct 5,37.431357,-122.181282,http://fops-cf.stanford.edu/stanford_ivl/stopDepartures.cfm?stopid=89
89,91,Sand Hill Rd. @ Stock Farm Rd.,37.43172,-122.186115,http://fops-cf.stanford.edu/stanford_ivl/stopDepartures.cfm?stopid=91
90,92,Sand Hill Rd. @The Oak Creek Apts.,37.430085,-122.188042,http://fops-cf.stanford.edu/stanford_ivl/stopDepartures.cfm?stopid=92
91,93,Panama St  @ Via Ortega.,37.427611,-122.176286,http://fops-cf.stanford.edu/stanford_ivl/stopDepartures.cfm?stopid=93
92,94,Via Ortega @ Panama,37.427732,-122.17643,http://fops-cf.stanford.edu/stanford_ivl/stopDepartures.cfm?stopid=94
93,95,Serra Mall @ Lasuen Mall,37.428612,-122.168176,http://fops-cf.stanford.edu/stanford_ivl/stopDepartures.cfm?stopid=95
94,96,Campus Oval,37.429227,-122.169004,http://fops-cf.stanford.edu/stanford_ivl/stopDepartures.cfm?stopid=96
95,97,Galvez @ Serra Mall,37.428113,-122.165378,http://fops-cf.stanford.edu/stanford_ivl/stopDepartures.cfm?stopid=97
96,98,Serra @ Knight Center,37.427525,-122.162783,http://fops-cf.stanford.edu/stanford_ivl/stopDepartures.cfm?stopid=98
97,99,Serra St. @ The Schwab Residential Ctr,37.427388,-122.162572,http://fops-cf.stanford.edu/stanford_ivl/stopDepartures.cfm?stopid=99
98,100,Palo Rd @ Hoover Pavilion,37.441567,-122.167742,http://fops-cf.stanford.edu/stanford_ivl/stopDepartures.cfm?stopid=100
99,101,Quarry Rd @ Hoover Pavilion,37.442178,-122.169041,http://fops-cf.stanford.edu/stanford_ivl/stopDepartures.cfm?stopid=101
100,102,Quarry Rd @ Stanford Shopping Center,37.442072,-122.169487,http://fops-cf.stanford.edu/stanford_ivl/stopDepartures.cfm?stopid=102
101,103,Medical School @ Quarry Rd.,37.432589,-122.174132,http://fops-cf.stanford.edu/stanford_ivl/stopDepartures.cfm?stopid=103
102,104,Roth Way @ Cantor Arts Center,37.431909,-122.17074,http://fops-cf.stanford.edu/stanford_ivl/stopDepartures.cfm?stopid=104
103,105,Pastuer Drive @ Stanford Hospital,37.433177,-122.1769,http://fops-cf.stanford.edu/stanford_ivl/stopDepartures.cfm?stopid=105
104,106,Pastuer Dr. @Parking Structure  3,37.433867,-122.176921,http://fops-cf.stanford.edu/stanford_ivl/stopDepartures.cfm?stopid=106
105,107,Blake Wilbur,37.43521,-122.176977,http://fops-cf.stanford.edu/stanford_ivl/stopDepartures.cfm?stopid=107
106,108,Stanford West Apartments,37.438755,-122.178719,http://fops-cf.stanford.edu/stanford_ivl/stopDepartures.cfm?stopid=108
107,109,Oak Rd. @ Environmental Health &Safety,37.429293,-122.18429,http://fops-cf.stanford.edu/stanford_ivl/stopDepartures.cfm?stopid=109
108,110,Environmental Health and Safety @ Oak Rd,37.429408,-122.184383,http://fops-cf.stanford.edu/stanford_ivl/stopDepartures.cfm?stopid=110
110,112,Palo Alto Medical Foundation,37.439972,-122.160593,http://fops-cf.stanford.edu/stanford_ivl/stopDepartures.cfm?stopid=112
114,114,San Antonio Ave @ San Antonio Shpng Cent,37.402149,-122.112871,http://fops-cf.stanford.edu/stanford_ivl/stopDepartures.cfm?stopid=114
116,115,California Ave. @ Yale St,37.424287,-122.146579,http://fops-cf.stanford.edu/stanford_ivl/stopDepartures.cfm?stopid=115
119,119,Hanover and Page Mill (VA),37.41747,-122.147622,http://fops-cf.stanford.edu/stanford_ivl/stopDepartures.cfm?stopid=119
120,120,PageMil and Hanover (VA),37.417421,-122.147269,http://fops-cf.stanford.edu/stanford_ivl/stopDepartures.cfm?stopid=120
121,118,California Ave @ Hanover,37.41947,-122.150449,http://fops-cf.stanford.edu/stanford_ivl/stopDepartures.cfm?stopid=118
124,121,Hanover @ California Ave,37.419068,-122.150605,http://fops-cf.stanford.edu/stanford_ivl/stopDepartures.cfm?stopid=121
127,126,ElCamino @ Cal. Ave to Campus,37.425347,-122.146088,http://fops-cf.stanford.edu/stanford_ivl/stopDepartures.cfm?stopid=126
128,127,El Camino @ California Ave Outbound,37.424822,-122.145674,http://fops-cf.stanford.edu/stanford_ivl/stopDepartures.cfm?stopid=127
131,134,1100 Welch Rd.,37.435035,-122.179226,http://fops-cf.stanford.edu/stanford_ivl/stopDepartures.cfm?stopid=134
133,136,900 Welch Rd.,37.436008,-122.178304,http://fops-cf.stanford.edu/stanford_ivl/stopDepartures.cfm?stopid=136
134,137,770 Welch Rd.,37.437517,-122.175567,http://fops-cf.stanford.edu/stanford_ivl/stopDepartures.cfm?stopid=137
138,139,CancerCenter,37.43591,-122.1766,http://fops-cf.stanford.edu/stanford_ivl/stopDepartures.cfm?stopid=139
140,141,Blake Wilbur @ Pasteur,37.434007,-122.177284,http://fops-cf.stanford.edu/stanford_ivl/stopDepartures.cfm?stopid=141
141,142,Olmsted Rd. @ Welleseley St.,37.42519,-122.152195,http://fops-cf.stanford.edu/stanford_ivl/stopDepartures.cfm?stopid=142
142,143,Olmsted Rd. @ Oberlin St.,37.423057,-122.153729,http://fops-cf.stanford.edu/stanford_ivl/stopDepartures.cfm?stopid=143
143,144,217 Bowdoin,37.421619,-122.160522,http://fops-cf.stanford.edu/stanford_ivl/stopDepartures.cfm?stopid=144
144,145,Bowdoin St @ Pine Hill Rd,37.420013,-122.158258,http://fops-cf.stanford.edu/stanford_ivl/stopDepartures.cfm?stopid=145
145,146,3300 Hillview,37.407043,-122.145384,http://fops-cf.stanford.edu/stanford_ivl/stopDepartures.cfm?stopid=146
146,147,Mirianda Ave. @ Hillview Ave.,37.404443,-122.145427,http://fops-cf.stanford.edu/stanford_ivl/stopDepartures.cfm?stopid=147
147,148,VA Hospital,37.404005,-122.14128,http://fops-cf.stanford.edu/stanford_ivl/stopDepartures.cfm?stopid=148
148,149,3375 Hillview,37.405029,-122.145653,http://fops-cf.stanford.edu/stanford_ivl/stopDepartures.cfm?stopid=149
150,151,Vi,37.43979644,-122.1757026,http://fops-cf.stanford.edu/stanford_ivl/stopDepartures.cfm?stopid=151
152,153,El Camino Real @ Serra St.,37.429625,-122.15156,http://fops-cf.stanford.edu/stanford_ivl/stopDepartures.cfm?stopid=153
158,159,1500 Page Mill,37.413995,-122.149751,http://fops-cf.stanford.edu/stanford_ivl/stopDepartures.cfm?stopid=159
160,160,Pasteur Dr. @ Sand Hill Rd. North,37.434271,-122.181231,http://fops-cf.stanford.edu/stanford_ivl/stopDepartures.cfm?stopid=160
161,161,Pasteur Dr. @ Sand Hill Rd. South,37.434186,-122.181619,http://fops-cf.stanford.edu/stanford_ivl/stopDepartures.cfm?stopid=161
167,163,Page Mill Rd. @ Peter Coutts West,37.411855,-122.151519,http://fops-cf.stanford.edu/stanford_ivl/stopDepartures.cfm?stopid=163
168,164,Page Mill Rd. @ Peter Coutts East,37.412171,-122.150933,http://fops-cf.stanford.edu/stanford_ivl/stopDepartures.cfm?stopid=164
169,165,El Camino Real @ Galvez St,37.436861,-122.159819,http://fops-cf.stanford.edu/stanford_ivl/stopDepartures.cfm?stopid=165
170,166,1050 Arastradero @ PRC,37.3947,-122.14584,http://fops-cf.stanford.edu/stanford_ivl/stopDepartures.cfm?stopid=166
177,173,SLAC Central Lab,37.418011,-122.204163,http://fops-cf.stanford.edu/stanford_ivl/stopDepartures.cfm?stopid=173
178,174,SLAC A&E Bldg,37.419208,-122.20676,http://fops-cf.stanford.edu/stanford_ivl/stopDepartures.cfm?stopid=174
179,175,SLAC Fire Station,37.417851,-122.205388,http://fops-cf.stanford.edu/stanford_ivl/stopDepartures.cfm?stopid=175
180,176,SLAC Kavli Bldg,37.4201,-122.205707,http://fops-cf.stanford.edu/stanford_ivl/stopDepartures.cfm?stopid=176
181,177,Campus Dr @ Li Ka Shing,37.430736,-122.176297,http://fops-cf.stanford.edu/stanford_ivl/stopDepartures.cfm?stopid=177
182,178,Campus Dr. @ Cogen/Li Ka Shing,37.4305,-122.176032,http://fops-cf.stanford.edu/stanford_ivl/stopDepartures.cfm?stopid=178
184,180,Roth Way @ Campus Dr. and PS1,37.432292,-122.17266,http://fops-cf.stanford.edu/stanford_ivl/stopDepartures.cfm?stopid=180
185,154,Ardenwood Park and Ride,37.551938,-122.05365,http://fops-cf.stanford.edu/stanford_ivl/stopDepartures.cfm?stopid=154
187,182,3145 Porter Circle,37.409012,-122.151521,http://fops-cf.stanford.edu/stanford_ivl/stopDepartures.cfm?stopid=182
188,183,Page Mill @ El Camino SW,37.42261032,-122.1425451,http://fops-cf.stanford.edu/stanford_ivl/stopDepartures.cfm?stopid=183
189,184,Page Mill @ Hanover (RP),37.417493,-122.146876,http://fops-cf.stanford.edu/stanford_ivl/stopDepartures.cfm?stopid=184
190,185,Hillview Ave. @ Porter Dr.,37.408678,-122.146608,http://fops-cf.stanford.edu/stanford_ivl/stopDepartures.cfm?stopid=185
191,186,Hillview Ave. @ Coyote Hill Rd. West,37.401312,-122.145402,http://fops-cf.stanford.edu/stanford_ivl/stopDepartures.cfm?stopid=186
192,187,3431 Hillview Ave. West,37.398543,-122.14441,http://fops-cf.stanford.edu/stanford_ivl/stopDepartures.cfm?stopid=187
193,188,1070 Arastredero Rd. Side (RP),37.394681,-122.146373,http://fops-cf.stanford.edu/stanford_ivl/stopDepartures.cfm?stopid=188
194,189,3495 Deer Creek Rd. East,37.39409057,-122.1486518,http://fops-cf.stanford.edu/stanford_ivl/stopDepartures.cfm?stopid=189
195,190,3475 Deer Creek Rd. East,37.395278,-122.149539,http://fops-cf.stanford.edu/stanford_ivl/stopDepartures.cfm?stopid=190
196,191,3475 Deer Creek Rd. West,37.395463,-122.150006,http://fops-cf.stanford.edu/stanford_ivl/stopDepartures.cfm?stopid=191
197,192,3495 Deer Creek Rd. West,37.393866,-122.148711,http://fops-cf.stanford.edu/stanford_ivl/stopDepartures.cfm?stopid=192
198,193,1070 Arastradero Rd. Front (RP),37.394153,-122.146616,http://fops-cf.stanford.edu/stanford_ivl/stopDepartures.cfm?stopid=193
199,194,3431 Hillview Ave. East,37.398935,-122.144397,http://fops-cf.stanford.edu/stanford_ivl/stopDepartures.cfm?stopid=194
200,195,Hillview Ave. @ Coyote Hill Rd. East,37.402242,-122.145527,http://fops-cf.stanford.edu/stanford_ivl/stopDepartures.cfm?stopid=195
201,196,Porter Dr. @  Hillview Ave,37.408784,-122.147473,http://fops-cf.stanford.edu/stanford_ivl/stopDepartures.cfm?stopid=196
202,197,Page Mill @ Hanover East (RP),37.417486,-122.146542,http://fops-cf.stanford.edu/stanford_ivl/stopDepartures.cfm?stopid=197
204,199,3145 Porter Drive,37.408737,-122.151617,http://fops-cf.stanford.edu/stanford_ivl/stopDepartures.cfm?stopid=199
211,206,Rosewood Hotel,37.41988,-122.210846,http://fops-cf.stanford.edu/stanford_ivl/stopDepartures.cfm?stopid=206
212,212,El Camino Real @ Safeway,37.450735,-122.177891,http://fops-cf.stanford.edu/stanford_ivl/stopDepartures.cfm?stopid=212
213,213,El Camino Real @ Staples,37.451559,-122.178719,http://fops-cf.stanford.edu/stanford_ivl/stopDepartures.cfm?stopid=213
214,214,Menlo Park Cal Train Sop,37.454544,-122.182332,http://fops-cf.stanford.edu/stanford_ivl/stopDepartures.cfm?stopid=214
215,215,SMP,37.458893,-122.175405,http://fops-cf.stanford.edu/stanford_ivl/stopDepartures.cfm?stopid=215
216,216,Palo Alto Transit Center Bus Depot,37.444115,-122.166435,http://fops-cf.stanford.edu/stanford_ivl/stopDepartures.cfm?stopid=216
217,217,El Camino Real @ Palo Alto Square,37.422582,-122.141474,http://fops-cf.stanford.edu/stanford_ivl/stopDepartures.cfm?stopid=217
218,218,El Camino REal @ Page Mill Park and Ride,37.423427,-122.142365,http://fops-cf.stanford.edu/stanford_ivl/stopDepartures.cfm?stopid=218
219,219,El Camino Real @ Hansen Way and Frys,37.420571,-122.137604,http://fops-cf.stanford.edu/stanford_ivl/stopDepartures.cfm?stopid=219
220,220,El Camino Real @ Portage Ave. Frys,37.421162,-122.138125,http://fops-cf.stanford.edu/stanford_ivl/stopDepartures.cfm?stopid=220
221,221,El Camino Real @ Maybell Ave,37.412124,-122.124914,http://fops-cf.stanford.edu/stanford_ivl/stopDepartures.cfm?stopid=221
222,222,El Camion Real @ El Camino Way,37.412509,-122.1248,http://fops-cf.stanford.edu/stanford_ivl/stopDepartures.cfm?stopid=222
223,223,California St @ San Antonio Shopping Cen,37.405004,-122.108985,http://fops-cf.stanford.edu/stanford_ivl/stopDepartures.cfm?stopid=223
224,124,Showers Dr @ San Antonio Shopping Cen,37.401294,-122.108099,http://fops-cf.stanford.edu/stanford_ivl/stopDepartures.cfm?stopid=124
225,224,Panama @ Via Ortega,37.427581,-122.176485,http://fops-cf.stanford.edu/stanford_ivl/stopDepartures.cfm?stopid=224
227,226,Panama St @ Campus Dr,37.430676,-122.178398,http://fops-cf.stanford.edu/stanford_ivl/stopDepartures.cfm?stopid=226
228,227,Roth Way @ Lokey,37.432263,-122.172972,http://fops-cf.stanford.edu/stanford_ivl/stopDepartures.cfm?stopid=227
229,228,Welch Rd @ Quarry Rd,37.436944,-122.172845,http://fops-cf.stanford.edu/stanford_ivl/stopDepartures.cfm?stopid=228
230,229,SearsVille Rd @ Fremont Rd,37.428731,-122.183352,http://fops-cf.stanford.edu/stanford_ivl/stopDepartures.cfm?stopid=229
